City_ID,City,Lat,Lng,Max Temp,Humidity,Cloudiness,Wind Speed,Country,Date
0,flin flon,54.7682,-101.865,6.54,86,80,2.24,CA,1696486057
1,ilulissat,69.2167,-51.1,-1.99,74,100,0.0,GL,1696486057
2,wailua homesteads,22.0669,-159.378,25.24,90,100,2.06,US,1696486058
3,east london,-33.0153,27.9116,23.89,64,89,3.41,ZA,1696486058
4,rio grande,-32.035,-52.0986,12.75,84,78,4.51,BR,1696486058
5,alaghsas,17.0187,8.0168,28.81,25,7,6.8,NE,1696486058
6,san jose del guaviare,2.5729,-72.6459,24.34,87,100,0.89,CO,1696486059
7,kodiak,57.79,-152.4072,8.73,87,100,11.32,US,1696486059
8,rome,34.257,-85.1647,19.58,85,0,1.34,US,1696485787
9,puerto ayora,-0.7393,-90.3518,21.97,99,52,3.19,EC,1696486059
10,iqaluit,63.7506,-68.5145,0.85,93,100,8.23,CA,1696486059
11,guarapari,-20.6667,-40.4975,24.38,92,62,7.2,BR,1696486060
12,jieshi,22.8134,115.8257,30.33,61,100,7.07,CN,1696486060
13,waitangi,-43.9535,-176.5597,10.46,90,43,1.79,NZ,1696486060
14,avarua,-21.2078,-159.775,25.03,88,100,10.29,CK,1696486047
15,cadale,2.7603,46.3222,27.47,74,64,5.66,SO,1696486060
16,san pedro pochutla,15.7333,-96.4667,24.37,88,54,1.67,MX,1696486061
17,bredasdorp,-34.5322,20.0403,16.22,94,100,1.42,ZA,1696486061
18,teruel,40.6667,-0.6667,14.21,57,2,1.77,ES,1696486061
19,grytviken,-54.2811,-36.5092,2.75,63,10,5.57,GS,1696486062
20,koszalin,54.1944,16.1722,12.76,75,100,9.46,PL,1696486062
21,whitehorse,60.7161,-135.0538,-2.33,73,52,1.34,CA,1696486062
22,suwayr,30.1171,40.3893,25.52,38,47,5.43,SA,1696486062
23,puerto natales,-51.7236,-72.4875,3.37,89,100,2.26,CL,1696486063
24,klyetsk,53.0635,26.6321,9.82,86,32,5.03,BY,1696486063
25,ialibu,-6.2821,143.9935,15.38,99,98,1.03,PG,1696486064
26,albany,42.6001,-73.9662,19.21,92,2,1.29,US,1696486035
27,klyuchi,52.2667,79.1667,15.53,30,93,2.56,RU,1696486064
28,edinburgh of the seven seas,-37.0676,-12.3116,10.28,67,95,3.89,SH,1696486064
29,minas de marcona,-15.2119,-75.1103,12.83,89,88,5.77,PE,1696486065
30,ghanzi,-21.5667,21.7833,24.74,14,5,5.3,BW,1696486065
31,utrik,11.2278,169.8474,28.68,77,66,7.11,MH,1696486065
32,constantia,44.1833,28.65,17.61,68,98,3.81,RO,1696485898
33,touros,-5.1989,-35.4608,26.23,66,56,5.45,BR,1696485994
34,wanning,18.8003,110.3967,31.31,65,80,3.27,CN,1696486066
35,atafu village,-8.5421,-172.5159,28.78,75,35,2.13,TK,1696486066
36,lihue,21.9789,-159.3672,25.58,88,100,2.06,US,1696486066
37,revda,56.801,59.9303,13.34,55,38,6.56,RU,1696486066
38,saint-joseph,-21.3667,55.6167,24.21,65,23,4.89,RE,1696486067
39,port-aux-francais,-49.35,70.2167,1.58,63,95,11.35,TF,1696486067
40,lethem,3.3803,-59.7968,27.45,61,27,3.65,GY,1696486067
41,jayapura,-2.5333,140.7,30.66,73,95,2.26,ID,1696486067
42,yellowknife,62.456,-114.3525,2.45,97,100,7.72,CA,1696486068
43,west island,-12.1568,96.8225,27.99,69,40,8.23,CC,1696486068
44,canguaretama,-6.38,-35.1289,25.16,69,59,4.49,BR,1696486068
45,port elizabeth,-33.918,25.5701,17.95,97,90,0.89,ZA,1696486068
46,haiku-pauwela,20.9219,-156.3051,25.02,79,20,3.09,US,1696485895
47,richards bay,-28.783,32.0377,21.87,79,63,1.24,ZA,1696486069
48,la'ie,21.6477,-157.9253,25.98,75,28,0.89,US,1696486069
49,kirakira,-10.4544,161.9205,27.04,81,64,5.97,SB,1696486069
50,kidal,18.4411,1.4078,29.75,28,85,2.99,ML,1696485948
51,ambon,-3.6954,128.1814,29.08,74,40,3.6,ID,1696486070
52,papatowai,-46.5619,169.4708,16.22,76,97,2.54,NZ,1696486070
53,olinda,-8.0089,-34.8553,25.85,69,40,3.09,BR,1696486070
54,kapuskasing,49.4169,-82.4331,17.27,88,97,4.67,CA,1696486070
55,northam,51.0333,-4.2167,13.7,93,100,4.43,GB,1696486071
56,college,64.8569,-147.8028,-0.67,80,0,3.6,US,1696485981
57,blackmans bay,-43.0167,147.3167,14.07,74,86,4.74,AU,1696485803
58,saint-pierre,-21.3393,55.4781,24.82,57,0,6.69,RE,1696486071
59,noshiro,40.2039,140.0242,15.29,89,94,9.94,JP,1696486071
60,saipan,15.1355,145.701,29.39,74,20,5.14,MP,1696486072
61,bel ombre,-4.6167,55.4167,26.7,84,24,7.89,SC,1696486072
62,ferkessedougou,9.6,-5.2,21.81,97,88,1.65,CI,1696486072
63,lebu,-37.6167,-73.65,8.33,87,3,4.44,CL,1696486072
64,ghormach,35.7306,63.7826,28.5,14,8,3.23,AF,1696486073
65,middelburg,-25.7751,29.4648,22.29,24,32,1.93,ZA,1696486073
66,ust-nera,64.5667,143.2,1.79,58,100,1.34,RU,1696486074
67,port alfred,-33.5906,26.891,20.8,88,99,4.34,ZA,1696486074
68,weno,7.4515,151.8468,26.97,89,100,4.63,FM,1696486074
69,port mathurin,-19.6833,63.4167,23.22,79,62,9.12,MU,1696486074
70,orland,39.7474,-122.1964,24.17,49,0,3.23,US,1696486074
71,stanley,54.868,-1.6985,12.06,94,75,1.54,GB,1696486075
72,labytnangi,66.6572,66.4183,5.59,98,100,6.39,RU,1696486075
73,prainha,-1.8,-53.48,24.93,77,53,1.57,BR,1696486075
74,skelleftea,64.7507,20.9528,2.22,100,0,3.6,SE,1696486075
75,aktau,43.65,51.2,19.32,61,100,4.27,KZ,1696486075
76,kavaratti,10.5669,72.642,27.15,71,32,1.58,IN,1696486076
77,saint-philippe,-21.3585,55.7679,24.77,68,43,4.49,RE,1696486076
78,fortuna,40.5982,-124.1573,15.51,100,0,5.14,US,1696486076
79,puerto baquerizo moreno,-0.9,-89.6,22.07,86,44,4.25,EC,1696486076
80,harstad,68.799,16.5293,2.66,93,100,11.62,NO,1696486076
81,palmer,42.1584,-72.3287,18.76,84,0,0.0,US,1696486077
82,turrialba,9.9047,-83.6835,22.98,95,99,1.73,CR,1696486077
83,guerrero negro,27.9769,-114.0611,20.1,79,0,3.3,MX,1696486077
84,georgetown,5.4112,100.3354,31.77,96,40,1.54,MY,1696486077
85,colonia,50.9333,6.95,13.87,80,0,3.09,DE,1696485947
86,tazovsky,67.4667,78.7,1.89,85,83,2.53,RU,1696486078
87,villa union,23.2,-106.2333,27.17,89,75,0.0,MX,1696486078
88,kavieng,-2.5744,150.7967,28.46,77,95,5.58,PG,1696486078
89,tomatlan,19.9333,-105.25,24.43,95,87,1.75,MX,1696486078
90,san salvador,13.6894,-89.1872,22.15,100,86,0.77,SV,1696486079
91,margaret river,-33.95,115.0667,20.11,59,30,5.14,AU,1696485788
92,isafjordur,66.0755,-23.124,2.45,90,100,7.41,IS,1696486079
93,inhambane,-23.865,35.3833,23.99,64,20,4.12,MZ,1696486079
94,adamstown,-25.066,-130.1015,20.62,76,100,7.29,PN,1696486080
95,ambatondrazaka,-17.8333,48.4167,19.02,79,100,2.83,MG,1696486080
96,i-n-salah,27.1935,2.4607,25.18,26,0,9.03,DZ,1696485952
97,athens,37.9795,23.7162,21.43,64,20,2.06,GR,1696485787
98,fort st. john,56.2499,-120.8529,3.32,45,100,1.37,CA,1696486080
99,arteche,12.2645,125.4048,29.24,77,28,1.94,PH,1696486081
100,bend,44.0582,-121.3153,15.4,63,0,2.06,US,1696486069
101,uturoa,-16.7333,-151.4333,26.18,77,4,9.26,PF,1696486081
102,fort morgan,40.2503,-103.8,14.36,47,6,6.69,US,1696486081
103,iskateley,67.6803,53.1512,3.9,78,100,9.39,RU,1696486081
104,salinopolis,-0.6136,-47.3561,26.12,79,16,5.34,BR,1696486082
105,yigo village,13.5361,144.8886,25.62,89,100,6.69,GU,1696486082
106,ulladulla,-35.35,150.4667,17.09,34,24,5.98,AU,1696486082
107,jamestown,42.097,-79.2353,20.77,88,0,2.06,US,1696485831
108,ushuaia,-54.8,-68.3,4.12,93,100,4.47,AR,1696486083
109,rach gia,10.0167,105.0833,29.61,75,72,6.26,VN,1696486083
110,faya-largeau,17.9257,19.1043,29.02,29,58,10.38,TD,1696486083
111,vila velha,-20.3297,-40.2925,24.97,86,20,6.69,BR,1696486083
112,betio village,1.358,172.9211,28.96,69,100,0.18,KI,1696486084
113,ujae,8.9322,165.7642,28.56,79,100,6.55,MH,1696486084
114,bilibino,68.0546,166.4372,-13.36,91,6,1.96,RU,1696486084
115,malango,-2.9627,119.9001,30.34,45,14,2.84,ID,1696486084
116,tsagan aman,47.5639,46.7218,17.33,47,0,2.81,RU,1696486085
117,rubtsovsk,51.5,81.25,14.04,52,100,2.88,RU,1696486085
118,baardheere,2.3446,42.2764,26.08,68,93,6.63,SO,1696486085
119,aasiaat,68.7098,-52.8699,-7.51,80,87,3.97,GL,1696486085
120,qaqortoq,60.7167,-46.0333,1.32,57,11,2.16,GL,1696486086
121,olonkinbyen,70.9221,-8.7187,0.15,65,98,8.25,SJ,1696486086
122,boende,-0.2167,20.8667,22.38,97,96,0.78,CD,1696486086
123,kulu,39.0951,33.0799,14.18,49,0,2.57,TR,1696486086
124,laojunmiao,39.8333,97.7333,13.24,50,100,2.45,CN,1696486087
125,lepsy,46.235,78.9456,19.03,34,3,4.17,KZ,1696486087
126,north bay,46.3168,-79.4663,21.17,76,0,4.12,CA,1696485960
127,haenam,34.5711,126.5989,18.43,44,27,8.97,KR,1696486087
128,talnakh,69.4865,88.3972,-1.96,93,94,2.85,RU,1696486088
129,knottsville,37.7717,-86.9042,20.42,57,100,2.27,US,1696486088
130,bastad,56.4269,12.8534,13.31,88,40,11.32,SE,1696486088
131,bethel,41.3712,-73.414,17.62,88,0,0.67,US,1696486088
132,vadso,70.0744,29.7487,4.09,75,40,10.8,NO,1696486089
133,vila franca do campo,37.7167,-25.4333,22.23,93,73,6.41,PT,1696486089
134,ribeira grande,38.5167,-28.7,22.65,94,100,8.94,PT,1696486089
135,novyy urengoy,66.0833,76.6333,2.86,93,100,3.72,RU,1696486089
136,hammerfest,70.6634,23.6821,3.25,81,75,6.17,NO,1696486090
137,carnarvon,-24.8667,113.6333,24.65,47,0,6.45,AU,1696486090
138,tianpeng,30.9866,103.9393,20.26,76,100,1.27,CN,1696485936
139,sola,-13.8833,167.55,25.66,76,92,11.05,VU,1696486090
140,hithadhoo,-0.6,73.0833,27.73,76,58,4.26,MV,1696486091
141,tual,-5.6667,132.75,26.55,81,88,6.44,ID,1696486091
142,gumla,23.05,84.55,28.86,68,82,3.57,IN,1696486091
143,ceelbuur,4.685,46.6176,28.18,67,75,6.66,SO,1696486091
144,qianzhou,28.3167,109.7167,18.31,89,100,2.47,CN,1696486092
145,schweizer-reneke,-27.1887,25.3293,24.34,17,16,6.58,ZA,1696486092
146,bubaque,11.2833,-15.8333,27.83,79,100,7.01,GW,1696486092
147,roma,43.2128,-75.4557,19.42,93,0,0.0,US,1696485918
148,pizarro,4.9533,-77.366,24.56,89,98,0.39,CO,1696486093
149,huanggang,23.677,116.9996,28.01,71,100,3.53,CN,1696486093
150,alofi,-19.0595,-169.9187,21.41,73,100,5.63,NU,1696486093
151,hermanus,-34.4187,19.2345,16.07,88,100,0.77,ZA,1696486093
152,merrill,45.1805,-89.6835,13.1,89,0,1.54,US,1696486094
153,portland,45.5234,-122.6762,16.45,91,20,0.45,US,1696486006
154,solnechnyy,50.7214,136.6319,6.13,95,100,4.13,RU,1696486094
155,dera bugti,29.0307,69.151,35.32,14,0,3.49,PK,1696486094
156,egilsstadir,65.2653,-14.3948,0.95,100,75,1.54,IS,1696486095
157,vorgashor,67.5833,63.95,3.96,94,100,7.48,RU,1696485976
158,severo-yeniseyskiy,60.3725,93.0408,3.65,97,100,4.92,RU,1696486095
159,myeik,12.4333,98.6,27.41,87,89,4.12,MM,1696486095
160,kyshtovka,56.555,76.6271,15.19,59,100,5.36,RU,1696486096
161,nemuro,43.3236,145.575,16.54,92,100,11.99,JP,1696486096
162,nogliki,51.8333,143.1667,7.97,86,100,3.58,RU,1696486096
163,tiksi,71.6872,128.8694,-2.83,84,96,2.67,RU,1696486096
164,zeya,53.75,127.2667,7.72,36,18,3.13,RU,1696486096
165,celestun,20.8667,-90.4,26.96,84,27,5.63,MX,1696486097
166,anadyr,64.75,177.4833,1.28,86,75,4.0,RU,1696486097
167,nishinoomote,30.7333,131.0,25.41,65,78,9.15,JP,1696486097
168,longyearbyen,78.2186,15.6401,-2.09,64,20,1.54,SJ,1696486097
169,vrangel',42.7297,133.0839,12.07,58,55,9.53,RU,1696486098
170,bay roberts,47.5999,-53.2648,7.96,89,84,0.45,CA,1696486098
171,quatre cocos,-20.2078,57.7625,25.05,66,90,6.21,MU,1696486098
172,punta arenas,-53.15,-70.9167,9.06,57,40,10.29,CL,1696486098
173,keflavik,64.0049,-22.5624,5.24,87,100,7.72,IS,1696486098
174,tarauaca,-8.1614,-70.7656,24.77,64,72,0.36,BR,1696485900
175,barra de santo antonio,-9.4047,-35.5072,20.6,70,80,4.05,BR,1696485800
176,kedrovyy,56.1667,91.8167,13.26,51,100,3.7,RU,1696485976
177,margate,51.3813,1.3862,12.95,81,100,1.34,GB,1696486099
178,udachny,66.4167,112.4,0.25,63,55,8.25,RU,1696486100
179,manokwari,-0.8667,134.0833,27.98,77,90,1.34,ID,1696486100
180,alice springs,-23.7,133.8833,24.75,15,0,7.2,AU,1696486100
181,al bardiyah,31.7561,25.0865,22.85,71,15,2.92,LY,1696486100
182,st. john's,47.5649,-52.7093,7.76,82,40,6.69,CA,1696485909
183,puerto leguizamo,-0.1934,-74.7819,24.1,83,98,1.56,CO,1696486101
184,marcali,46.585,17.412,8.93,77,86,0.78,HU,1696486101
185,balsas,-7.5325,-46.0356,27.23,52,75,0.75,BR,1696486101
186,rizokarpaso,35.6,34.375,24.94,51,80,2.42,CY,1696486102
187,ciudad gustavo diaz ordaz,26.2333,-98.5833,29.45,84,47,0.45,MX,1696486102
188,mar del plata,-38.0023,-57.5575,7.27,86,0,2.68,AR,1696486102
189,new norfolk,-42.7826,147.0587,14.72,86,92,1.64,AU,1696486102
190,tura,25.5198,90.2201,22.6,99,100,2.31,IN,1696486102
191,turpan,42.9333,89.1667,27.7,23,12,1.52,CN,1696486103
192,dalnegorsk,44.5604,135.5701,8.67,85,95,5.81,RU,1696486103
193,taupo,-38.6833,176.0833,16.25,66,77,0.55,NZ,1696486003
194,happy valley-goose bay,53.3168,-60.3315,5.61,65,97,1.9,CA,1696486103
195,petropavlovsk-kamchatsky,53.0452,158.6483,9.33,75,75,4.02,RU,1696486104
196,samus',56.7475,84.6992,14.44,46,97,4.47,RU,1696486104
197,ancud,-41.8697,-73.8203,6.19,93,31,1.23,CL,1696486104
198,ouani,-12.1322,44.4258,26.97,72,31,2.9,KM,1696486104
199,vegueta,-11.0231,-77.6431,18.45,93,79,3.26,PE,1696486105
200,vilyuchinsk,52.9306,158.4028,10.15,86,100,1.25,RU,1696486105
201,sao joao da barra,-21.6403,-41.0511,23.12,90,75,8.87,BR,1696486105
202,ngunut,-8.1058,112.0159,32.67,48,35,6.62,ID,1696486105
203,brookings,44.3114,-96.7984,14.54,69,100,4.63,US,1696485914
204,ternate,0.8,127.4,28.53,74,88,5.37,ID,1696486106
205,yarmouth,41.7057,-70.2286,18.03,96,100,1.54,US,1696486106
206,aral,40.5156,81.2636,24.49,18,83,0.63,CN,1696486107
207,dudinka,69.4058,86.1778,-2.4,90,96,2.24,RU,1696485967
208,santa terezinha,-29.9002,-50.0904,15.23,91,98,4.0,BR,1696486107
209,shingu,33.7333,135.9833,23.08,53,68,5.68,JP,1696486107
210,saldanha,-33.0117,17.9442,16.17,89,100,1.65,ZA,1696486107
211,saint-georges,12.0564,-61.7485,28.21,80,83,4.03,GD,1696486108
212,lompoc,34.6391,-120.4579,18.66,82,0,0.0,US,1696486108
213,north bend,43.4065,-124.2243,15.48,100,0,2.57,US,1696486108
214,nuuk,64.1835,-51.7216,0.34,93,100,4.12,GL,1696486108
215,quiberon,47.4841,-3.1196,15.04,86,82,1.34,FR,1696486108
216,xiaoweizhai,26.1903,107.5125,19.68,90,100,2.06,CN,1696486109
217,dhidhdhoo,6.8833,73.1,27.37,80,100,5.42,MV,1696486109
218,gilgit,35.9221,74.3087,21.69,27,0,1.22,PK,1696486109
219,afaahiti,-17.75,-149.2833,24.93,84,54,10.21,PF,1696486109
220,coria,39.9879,-6.5377,16.36,46,0,1.16,ES,1696486110
221,taltal,-25.4,-70.4833,14.5,82,31,1.31,CL,1696486110
222,thompson,55.7435,-97.8558,5.83,91,98,1.48,CA,1696486110
223,walvis bay,-22.9575,14.5053,13.38,81,60,4.23,NA,1696486110
224,holualoa,19.6228,-155.9522,24.91,83,75,4.12,US,1696486110
225,maintirano,-18.0667,44.0167,29.34,62,4,0.89,MG,1696486111
226,luanda,-8.8368,13.2343,24.0,88,75,2.06,AO,1696485964
227,chonchi,-42.6128,-73.8092,7.29,95,28,1.1,CL,1696486111
228,znin,52.8496,17.7199,12.85,71,98,7.73,PL,1696486111
229,tweed heads,-28.1817,153.547,24.02,60,40,3.6,AU,1696486112
230,mena,51.5217,32.2157,11.09,75,34,4.87,UA,1696486112
231,kolonia town,6.964,158.206,28.06,83,100,2.57,FM,1696486112
232,howrah,22.5892,88.3103,30.0,84,75,4.63,IN,1696486112
233,karasburg,-28.0167,18.75,21.95,18,97,3.6,NA,1696486112
234,barra,-11.0894,-43.1417,26.44,53,62,2.79,BR,1696486113
235,sesheke,-17.4759,24.2968,25.5,17,64,4.57,ZM,1696486113
236,vodnyy,63.5046,53.4095,9.67,77,72,7.51,RU,1696486113
237,ola,59.5833,151.2833,10.23,62,18,1.12,RU,1696486114
238,freetown,8.484,-13.2299,25.5,86,91,0.93,SL,1696486114
239,aroma,15.8167,36.1333,32.06,40,0,1.89,SD,1696486114
240,williams lake,52.1415,-122.1445,10.76,86,100,2.06,CA,1696486114
241,pacasmayo,-7.4006,-79.5714,19.54,90,100,3.49,PE,1696486114
242,santa ana de yacuma,-13.75,-65.4333,29.61,39,11,3.05,BO,1696486115
243,nchelenge,-9.3451,28.734,26.91,39,100,2.01,ZM,1696486115
244,sao jose da coroa grande,-8.8978,-35.1478,25.36,67,87,3.86,BR,1696485968
245,casablanca,33.5928,-7.6192,17.01,66,95,0.98,MA,1696485907
246,estancia,-11.2683,-37.4383,21.26,95,21,1.27,BR,1696486115
247,wuhai,39.6647,106.8122,16.54,29,100,6.7,CN,1696486116
248,san antonio de pale,-1.4014,5.6325,25.46,86,99,6.65,GQ,1696486116
249,arar,30.9753,41.0381,25.01,38,0,5.14,SA,1696486116
250,kitimat,54.0524,-128.6534,9.39,26,100,1.03,CA,1696486116
251,quepos,9.4236,-84.1652,25.16,85,91,2.24,CR,1696486117
252,arraial do cabo,-22.9661,-42.0278,22.11,95,100,5.51,BR,1696486117
253,amasra,41.7463,32.3863,12.03,56,0,0.92,TR,1696486117
254,george town,5.4112,100.3354,31.77,96,40,1.54,MY,1696486077
255,hadibu,12.65,54.0333,28.63,63,26,1.8,YE,1696486117
256,howard springs,-12.497,131.047,28.95,53,60,4.64,AU,1696486118
257,uthal,25.8072,66.6219,31.33,56,12,2.91,PK,1696486118
258,vicam,27.6333,-110.2833,27.37,45,96,2.1,MX,1696486118
259,colares,38.7992,-9.4469,19.63,72,6,7.15,PT,1696486118
260,al kharijah,25.4514,30.5464,27.11,42,14,6.56,EG,1696486119
261,urangan,-25.3,152.9,23.05,83,38,5.34,AU,1696486119
262,ocean shores,46.9737,-124.1563,14.6,97,100,1.79,US,1696486119
263,invercargill,-46.4,168.35,18.9,67,81,0.89,NZ,1696486119
264,fale old settlement,-9.3852,-171.2468,27.92,78,20,1.82,TK,1696486119
265,newnham,-41.3833,147.1333,14.53,51,100,5.66,AU,1696486120
266,mount gambier,-37.8333,140.7667,13.51,84,84,5.52,AU,1696486120
267,dwarka,22.2394,68.9678,28.91,62,22,5.22,IN,1696486120
268,sisimiut,66.9395,-53.6735,0.06,83,100,2.5,GL,1696486120
269,godech,43.015,23.0442,9.91,72,94,0.83,BG,1696486121
270,nantucket,41.2835,-70.0995,18.03,100,100,0.0,US,1696486121
271,gandajika,-6.75,23.95,25.95,39,52,1.55,CD,1696486121
272,westport,41.1415,-73.3579,18.27,87,0,1.13,US,1696486078
273,la ronge,55.1001,-105.2842,7.24,90,97,5.59,CA,1696486121
274,dolores,-36.3132,-57.6792,5.19,66,0,3.59,AR,1696486122
275,cherlak,54.155,74.8055,14.42,44,65,4.87,RU,1696486122
276,kenora,49.8167,-94.4337,10.43,93,99,1.79,CA,1696486122
277,enewetak,11.3474,162.3373,28.97,79,94,7.08,MH,1696486122
278,owase,34.0667,136.2,21.32,60,66,5.27,JP,1696486122
279,akureyri,65.6835,-18.0878,2.57,90,99,1.03,IS,1696486123
280,metkovic,43.0542,17.6483,15.26,78,86,1.74,HR,1696486123
281,bela,25.9333,81.9833,30.7,67,68,2.79,IN,1696486123
282,nema,57.5067,50.5011,12.5,61,84,6.71,RU,1696486123
283,san julian,21.0167,-102.1667,15.41,86,93,1.36,MX,1696486124
284,polyarnyy,69.1989,33.4478,1.7,81,29,8.31,RU,1696486124
285,newman,37.3138,-121.0208,22.13,43,0,1.55,US,1696486124
286,xilin hot,43.9667,116.0333,15.58,21,0,6.32,CN,1696486124
287,santa cruz,-17.8,-63.1667,24.7,38,75,6.69,BO,1696486124
288,aleksandrovskoye,44.7142,43.0008,17.06,52,58,3.54,RU,1696486125
289,jindabyne,-36.4167,148.6333,8.71,64,42,5.15,AU,1696486125
290,yanam,16.7333,82.2167,35.35,39,30,3.03,IN,1696486125
291,puerto carreno,6.189,-67.4859,25.08,87,100,3.07,CO,1696486125
292,wynyard,-41.0,145.7167,10.88,92,87,4.49,AU,1696486125
293,pacific grove,36.6177,-121.9166,20.3,66,0,3.09,US,1696485826
294,island harbour,50.724,-1.2758,14.99,87,100,5.27,GB,1696486126
295,mount pearl,47.5166,-52.7813,7.3,83,100,2.24,CA,1696486126
296,zelenoborskiy,66.845,32.3622,0.37,73,84,2.53,RU,1696486126
297,urzhar,47.093,81.6294,18.66,35,7,2.4,KZ,1696486126
298,hirara,24.8,125.2833,28.53,80,73,4.53,JP,1696486127
299,rimus,16.8764,120.3966,28.46,81,100,3.79,PH,1696486127
300,floro,61.5996,5.0328,7.98,93,40,3.09,NO,1696486127
301,yuanping,38.7153,112.7575,17.07,43,100,1.9,CN,1696485943
302,hamilton,39.1834,-84.5333,21.1,77,0,2.57,US,1696485892
303,kill devil hills,36.0307,-75.676,22.21,88,40,3.6,US,1696486128
304,makhjan,17.2698,73.5003,30.36,71,84,1.55,IN,1696486128
305,humaita,-7.5061,-63.0208,26.95,61,96,0.23,BR,1696486128
306,castillos,-34.1667,-53.8333,7.41,93,20,3.16,UY,1696486128
307,kununurra,-15.7667,128.7333,36.99,36,40,6.17,AU,1696486129
308,maqat,47.65,53.3167,19.34,34,100,0.75,KZ,1696486129
309,umarkot,25.3616,69.7362,33.84,36,3,7.14,PK,1696486129
310,chabahar,25.2919,60.643,30.86,60,5,2.7,IR,1696485921
311,katsuura,35.1333,140.3,25.17,65,99,10.06,JP,1696486130
312,villa gesell,-37.2639,-56.973,3.36,79,0,6.58,AR,1696486130
313,cabo san lucas,22.8909,-109.9124,29.86,76,92,2.32,MX,1696485966
314,pleasanton,37.6624,-121.8747,23.42,58,0,0.0,US,1696485864
315,smara,26.7384,-11.6719,26.4,24,65,3.68,EH,1696486131
316,preobrazheniye,42.9019,133.9064,10.8,78,88,3.13,RU,1696486131
317,colima,19.1667,-104.0,21.29,97,66,0.99,MX,1696486131
318,quellon,-43.1167,-73.6167,6.26,90,76,1.87,CL,1696486131
319,badger,64.8,-147.5333,-0.72,82,0,3.6,US,1696486131
320,garbahaarrey,3.3289,42.2209,27.61,56,85,6.84,SO,1696486132
321,tobruk,32.0836,23.9764,22.62,65,0,2.27,LY,1696486132
322,tostado,-29.232,-61.7692,11.66,58,1,0.45,AR,1696486132
323,bazarnyy karabulak,52.2683,46.4144,11.92,51,100,2.77,RU,1696486132
324,hawaiian paradise park,19.5933,-154.9731,25.73,88,100,0.0,US,1696485943
325,rio casca,-20.2261,-42.6508,23.41,87,99,1.56,BR,1696485962
326,kruisfontein,-34.0033,24.7314,17.75,89,100,3.08,ZA,1696486133
327,vangaindrano,-23.35,47.6,24.0,62,99,2.15,MG,1696486133
328,malvan,16.0667,73.4667,27.19,81,39,2.16,IN,1696486133
329,melekeok village,7.4957,134.6367,28.31,78,100,3.09,PW,1696486134
330,lindesberg,59.592,15.2304,7.29,82,100,3.54,SE,1696486134
331,manacapuru,-3.2997,-60.6206,27.08,62,100,1.54,BR,1696486101
332,auki,-8.7676,160.7034,26.51,81,90,2.35,SB,1696486134
333,lazaro cardenas,17.9583,-102.2,26.6,82,66,1.5,MX,1696486134
334,torredembarra,41.1451,1.3986,22.75,97,20,3.09,ES,1696486135
335,nagqu,31.5,92.0,13.73,28,44,5.15,CN,1696486135
336,port lincoln,-34.7333,135.8667,16.02,69,99,6.5,AU,1696485976
337,santo domingo de los colorados,-0.25,-79.15,20.35,97,100,1.04,EC,1696486135
338,tabuk,17.4189,121.4443,28.96,70,100,0.71,PH,1696486136
339,rehoboth,-23.3167,17.0833,23.87,20,0,1.47,NA,1696486136
340,sitka,57.0531,-135.33,9.94,81,100,2.06,US,1696485940
341,krivosheino,57.3431,83.9261,9.83,63,100,5.01,RU,1696486136
342,sibut,5.718,19.0739,23.75,93,76,1.19,CF,1696486038
343,nova vicosa,-17.8919,-39.3719,24.41,88,71,6.1,BR,1696485943
344,riti,7.9167,9.6167,23.72,95,100,1.92,NG,1696486137
345,afif,23.9065,42.9172,32.49,12,0,5.29,SA,1696486137
346,ta`u,-14.2336,-169.5144,26.28,81,82,4.09,AS,1696486137
347,labuan,5.2767,115.2417,28.67,75,100,3.63,MY,1696486137
348,mufulira,-12.5498,28.2407,23.13,42,31,5.15,ZM,1696486138
349,vail,32.0479,-110.712,21.8,26,0,0.89,US,1696486138
350,mount isa,-20.7333,139.5,28.87,17,17,5.14,AU,1696486138
351,ribeira brava,32.65,-17.0667,27.85,24,90,3.62,PT,1696486138
352,prince rupert,54.3161,-130.3201,10.05,100,100,1.03,CA,1696486138
353,remire-montjoly,4.9167,-52.2667,25.02,94,0,0.0,GF,1696486139
354,fort bragg,35.139,-79.006,18.79,88,0,0.0,US,1696486139
355,ar ruways,24.1103,52.7306,34.37,53,0,4.31,AE,1696486139
356,luang namtha,20.9497,101.4011,30.24,69,25,1.06,LA,1696486139
357,taroa,8.7058,171.2275,28.73,74,96,7.67,MH,1696486140
358,elliot lake,46.3834,-82.6331,18.08,81,99,4.07,CA,1696486140
359,queenstown,-31.8976,26.8753,25.36,39,85,2.56,ZA,1696486140
360,gadzhiyevo,69.2551,33.3362,1.47,81,32,8.75,RU,1696486140
361,rimouski,48.4488,-68.524,12.88,96,48,0.5,CA,1696486141
362,paracuru,-3.41,-39.0306,26.73,76,73,5.77,BR,1696486141
363,bakhchysarai,44.75,33.8667,17.8,48,91,1.38,UA,1696486141
364,litchfield,41.7668,-73.2501,16.61,93,0,1.31,US,1696486141
365,tarija,-21.5355,-64.7296,10.98,82,88,1.16,BO,1696485889
366,port augusta,-32.5,137.7667,18.74,44,4,5.74,AU,1696486142
367,carbonear,47.7332,-53.2148,8.01,81,86,5.89,CA,1696486142
368,sao felix do xingu,-6.6447,-51.995,25.53,47,60,0.62,BR,1696485948
369,puerto deseado,-47.7503,-65.8938,8.68,68,3,5.76,AR,1696486142
370,strelka,58.0728,93.0344,10.6,70,100,4.29,RU,1696486143
371,pangody,65.85,74.4859,5.25,89,100,5.76,RU,1696486143
372,choibalsan,48.0667,114.5,16.24,27,0,4.69,MN,1696486143
373,callao,-12.0667,-77.15,19.29,82,100,4.12,PE,1696486144
374,novaya igirma,57.1334,103.9112,8.0,88,100,2.42,RU,1696486144
375,stephenville,32.2207,-98.2023,20.69,94,100,3.6,US,1696486144
376,laguna,38.421,-121.4238,23.77,55,0,3.09,US,1696486144
377,arkhangel'sk,64.5401,40.5433,6.74,79,77,3.51,RU,1696486144
378,tadine,-21.55,167.8833,21.83,64,15,7.68,NC,1696486145
379,zhezqazghan,47.7833,67.7667,14.32,51,0,5.0,KZ,1696485980
380,yangchun,22.1667,111.7833,31.41,67,94,2.18,CN,1696486145
381,puerto aysen,-45.4,-72.7,6.14,100,100,2.3,CL,1696486145
382,san juan bautista,-14.0108,-75.7358,18.6,83,30,1.01,PE,1696486146
383,saint-gely-du-fesc,43.6927,3.8049,13.82,87,0,1.54,FR,1696486146
384,ruteng,-8.6136,120.4721,24.34,58,43,0.46,ID,1696486146
385,chibougamau,49.9168,-74.3659,18.33,77,36,4.52,CA,1696486146
386,nevel'sk,46.6733,141.8633,12.84,91,100,10.11,RU,1696486147
387,sechura,-5.5569,-80.8222,20.06,86,77,3.9,PE,1696486147
388,berdigestyakh,62.0989,126.6992,1.27,92,98,4.02,RU,1696486147
389,tyukhtet,56.5389,89.3011,11.48,54,100,5.24,RU,1696486147
390,bonga,7.2833,36.2333,20.25,76,71,0.68,ET,1696486147
391,fort william,56.8165,-5.1121,8.5,97,87,1.23,GB,1696486148
392,playa blanca,28.8643,-13.8281,24.06,83,100,4.65,ES,1696486148
393,mahajanga,-15.7167,46.3167,28.14,47,21,5.62,MG,1696486148
394,xining,36.6167,101.7667,5.26,96,100,0.83,CN,1696486149
395,necochea,-38.5473,-58.7368,4.85,91,2,5.63,AR,1696486149
396,la gi,10.6667,107.7833,29.54,76,92,4.98,VN,1696486149
397,ha'il,27.5219,41.6907,28.01,30,0,4.12,SA,1696486149
398,moab,38.5733,-109.5498,13.6,38,1,1.27,US,1696486149
399,lorengau,-2.0226,147.2712,28.61,74,48,4.47,PG,1696486150
400,caleta de carquin,-11.0925,-77.6267,18.66,93,79,3.46,PE,1696486150
401,anqing,30.5092,117.0506,24.98,61,58,8.06,CN,1696486150
402,taulaga,-11.0553,-171.0883,27.7,78,92,2.52,AS,1696486150
403,antsiranana,-12.2787,49.2917,27.31,61,40,9.23,MG,1696486151
404,nadi,-17.8,177.4167,24.0,53,20,6.17,FJ,1696485980
405,revelstoke,50.9832,-118.2023,12.01,76,100,0.0,CA,1696485909
406,hachinohe,40.5,141.5,18.1,72,75,8.23,JP,1696486151
407,pontes e lacerda,-15.2261,-59.3353,25.76,54,93,0.68,BR,1696486151
408,nar'yan-mar,67.6713,53.087,3.95,78,100,9.39,RU,1696486152
409,gargalianoi,37.0667,21.6333,18.53,68,6,2.47,GR,1696486152
410,kajiado,-1.8524,36.7768,18.55,65,85,5.07,KE,1696486152
411,ca mau,9.1769,105.15,30.46,72,87,3.86,VN,1696486152
412,goderich,43.7501,-81.7165,21.06,62,84,8.35,CA,1696486153
413,gwadar,25.1216,62.3254,30.69,63,5,3.92,PK,1696486153
414,bani walid,31.7566,13.9942,19.37,80,0,2.27,LY,1696486153
415,melong,5.1218,9.9614,20.1,99,100,0.99,CM,1696486153
416,mogadishu,2.0371,45.3438,26.93,83,75,7.2,SO,1696485924
417,newcastle,-32.9272,151.7765,23.17,28,0,9.26,AU,1696485875
418,mazatlan,23.2167,-106.4167,27.17,83,75,0.89,MX,1696486154
419,nahiyat ash shinafiyah,31.5874,44.6602,30.53,31,2,5.09,IQ,1696486154
420,shaffa,10.5067,12.3332,24.23,68,97,0.52,NG,1696486154
421,nakamura,32.9833,132.9333,23.68,48,100,4.47,JP,1696486155
422,torbat-e jam,35.244,60.6225,27.04,15,6,2.11,IR,1696486155
423,dambatta,12.433,8.5154,26.39,45,98,2.2,NG,1696486155
424,at taj,24.2049,23.2857,22.78,34,1,5.27,LY,1696486155
425,webuye,0.6075,34.7697,22.02,62,8,2.48,KE,1696486156
426,abepura,-2.6333,140.5833,30.45,62,20,1.54,ID,1696486156
427,loja,-3.9931,-79.2042,10.95,93,100,0.45,EC,1696486057
428,cabedelo,-6.9811,-34.8339,22.37,68,78,4.98,BR,1696486156
429,kembe,4.6228,21.8865,22.66,95,100,0.46,CF,1696486157
430,tolanaro,-25.0319,46.9987,25.35,55,0,7.55,MG,1696486157
431,inari,68.906,27.0288,-0.89,68,98,6.01,FI,1696486157
432,ascoli satriano,41.2061,15.5615,18.08,68,44,1.07,IT,1696486157
433,kayangel,8.0823,134.7173,27.94,77,99,5.32,PW,1696486157
434,san patricio,28.017,-97.5169,29.36,84,51,6.0,US,1696486158
435,kailua-kona,19.6406,-155.9956,26.98,84,75,4.12,US,1696486158
436,alva,56.1528,-3.8051,11.69,97,100,0.89,GB,1696486158
437,ampanihy,-24.7,44.75,28.97,20,0,2.12,MG,1696486158
438,tulum,20.2167,-87.4667,25.65,93,14,1.76,MX,1696486159
439,lichinga,-13.3128,35.2406,21.45,58,0,6.17,MZ,1696486159
440,toulepleu guere,6.574,-8.4259,21.01,100,92,0.73,CI,1696486159
441,semera,11.501,41.201,30.77,27,42,2.96,ET,1696486159
442,ivdel',60.6911,60.4206,13.44,60,100,4.79,RU,1696486160
443,murghob,38.1702,73.9667,3.59,43,9,1.64,TJ,1696486160
444,ulanhot,46.0833,122.0833,17.7,29,3,4.27,CN,1696486160
445,shancheng,34.7953,116.0817,24.3,29,65,3.65,CN,1696486160
446,bayramaly,37.6185,62.1671,24.77,19,89,5.16,TM,1696486161
447,suva,-18.1416,178.4415,22.71,64,40,3.6,FJ,1696486161
448,divnogorsk,55.9594,92.3619,14.3,47,100,3.54,RU,1696485977
449,mkushi,-13.6202,29.3939,24.48,38,2,5.72,ZM,1696486161
450,cam ranh,11.9214,109.1591,31.98,62,20,5.66,VN,1696486161
451,pregradnaya,43.9508,41.1994,14.36,76,22,0.36,RU,1696486162
452,salekhard,66.53,66.6019,5.59,54,100,4.02,RU,1696486162
453,bac ninh,21.1833,106.05,34.05,51,19,2.35,VN,1696486162
454,horstel,52.3167,7.5833,13.03,53,100,6.07,DE,1696486162
455,santa maria,-29.6842,-53.8069,11.03,91,67,1.74,BR,1696486065
456,oamaru,-45.0784,170.9801,14.65,73,99,5.36,NZ,1696486163
457,fort mcmurray,56.7268,-111.381,4.73,81,100,6.69,CA,1696486163
458,kaiapoi,-43.3783,172.6401,15.19,86,93,5.66,NZ,1696486163
459,santa marinella,42.0345,11.8536,20.86,91,72,3.84,IT,1696486164
460,bardai,11.65,7.2333,22.42,59,96,3.51,NG,1696486164
461,susuman,62.7833,148.1667,2.21,56,34,1.34,RU,1696486164
462,bakanas,44.8081,76.2772,20.35,26,3,4.31,KZ,1696486164
463,moree,-29.4667,149.85,21.38,24,0,6.36,AU,1696486164
464,phu ly,20.5411,105.9139,33.89,53,34,2.39,VN,1696486165
465,san sebastian de la gomera,28.0916,-17.1133,34.2,12,0,2.57,ES,1696486165
466,serenje,-13.2325,30.2352,23.16,42,9,4.79,ZM,1696486165
467,itaueira,-7.6033,-43.0256,28.8,33,36,2.42,BR,1696486165
468,tulun,54.5611,100.5792,13.16,44,23,0.98,RU,1696486166
469,plastun,44.7561,136.2939,10.05,90,42,3.13,RU,1696486166
470,arno,60.1167,18.6333,10.44,72,82,4.9,SE,1696486166
471,banda aceh,5.5577,95.3222,29.47,71,100,6.98,ID,1696486166
472,tsiombe,-25.3,45.4833,28.26,33,0,2.38,MG,1696486167
473,richland,40.7834,-82.5499,19.64,79,0,3.09,US,1696485894
474,sao vicente,-23.9631,-46.3919,24.1,26,100,1.36,BR,1696486167
475,bokovskaya,49.229,41.8306,11.03,48,96,3.83,RU,1696486167
476,ankang,32.68,109.0172,15.27,93,100,1.1,CN,1696486167
477,agaie,9.0167,6.3167,24.91,86,83,0.6,NG,1696486168
478,kuqa,41.7278,82.9364,23.0,21,60,0.2,CN,1696486168
479,limbdi,22.5667,71.8,33.13,34,11,3.8,IN,1696486168
480,bidar,17.9,77.55,29.25,46,25,4.56,IN,1696486168
481,andergrove,-21.0833,149.1833,30.36,76,44,3.89,AU,1696486169
482,uporovo,56.3109,66.2693,16.65,54,23,6.52,RU,1696485982
483,kilju,40.9642,129.3278,16.95,23,0,3.35,KP,1696486169
484,tekeli,44.83,78.8239,18.37,26,4,2.18,KZ,1696486169
485,susanville,40.4163,-120.653,10.37,81,0,2.06,US,1696486119
486,nova sintra,14.8667,-24.7167,24.16,78,99,3.5,CV,1696486170
487,nacala,-14.5428,40.6728,28.53,62,20,3.68,MZ,1696486170
488,ebon,4.582,168.6964,29.19,69,76,2.4,MH,1696486170
489,sinabang,2.4803,96.3801,28.0,68,57,3.37,ID,1696486171
490,yemetsk,63.4721,41.7941,6.46,90,96,3.58,RU,1696486171
491,cacapava do sul,-30.5122,-53.4914,7.25,94,0,2.29,BR,1696486171
492,amahai,-3.3333,128.9167,27.76,72,42,2.92,ID,1696486097
493,rongelap,11.1635,166.8941,28.99,73,58,5.85,MH,1696486172
494,moses lake,47.1301,-119.2781,17.38,67,0,0.0,US,1696486172
495,boquim,-11.1469,-37.6206,19.66,97,20,1.19,BR,1696486172
496,port douglas,-16.4833,145.4667,25.5,72,74,3.25,AU,1696486172
497,namibe,-15.1961,12.1522,20.56,88,99,0.79,AO,1696486173
498,zaozersk,69.4005,32.4476,1.39,81,52,8.62,RU,1696486173
499,crane,31.3974,-102.3501,21.51,82,89,2.39,US,1696486173
500,waingapu,-9.6567,120.2641,31.5,52,61,4.44,ID,1696486173
501,hauterive,46.0901,3.4459,7.42,77,84,1.21,FR,1696486173
502,tralee,52.2704,-9.7026,13.98,94,100,4.01,IE,1696486174
503,gazipasa,36.2694,32.3179,22.05,53,20,3.09,TR,1696486174
504,bogale,16.2833,95.4,28.98,81,99,3.71,MM,1696486174
505,hasaki,35.7333,140.8333,27.38,61,90,2.3,JP,1696486174
506,atlantic city,39.3643,-74.4229,20.57,89,0,2.18,US,1696486175
507,daru,-9.0763,143.2092,26.79,71,14,4.9,PG,1696486175
508,zhangye,38.9342,100.4517,15.18,58,100,5.12,CN,1696486175
509,skiatook,36.3684,-96.0014,18.53,93,100,1.15,US,1696486175
510,badarpur,24.9,92.6,28.43,88,100,0.94,IN,1696486175
511,delray beach,26.4615,-80.0728,28.01,82,75,4.63,US,1696485942
512,al burayqah,30.4062,19.5739,22.52,62,0,4.58,LY,1696486176
513,ngereklmadel,7.4883,134.4856,28.05,78,100,3.09,PW,1696486176
514,manadhoo,5.7667,73.3833,27.16,81,100,5.86,MV,1696486176
515,shimoda,34.6667,138.95,23.39,64,57,12.36,JP,1696486176
516,santiago de cao,-7.9589,-79.2392,19.07,88,75,3.6,PE,1696486177
517,pitimbu,-7.4706,-34.8086,22.33,74,98,3.36,BR,1696486177
518,nueva gerona,21.8833,-82.8,27.88,77,1,5.16,CU,1696486177
519,panaba,21.2833,-88.2667,24.79,93,1,2.61,MX,1696486177
520,tqvarch'eli,42.8404,41.6801,17.53,75,14,1.0,GE,1696486178
521,cidreira,-30.1811,-50.2056,15.14,90,100,3.35,BR,1696486178
522,jumla,29.2747,82.1838,23.11,47,1,2.65,NP,1696486178
523,les cayes,18.2,-73.75,26.64,81,29,0.84,HT,1696486178
524,cedral,23.8,-100.7333,19.37,75,47,5.64,MX,1696486179
525,plouzane,48.3833,-4.6167,12.03,94,75,1.54,FR,1696486179
526,antofagasta,-23.65,-70.4,14.69,86,46,1.97,CL,1696486179
527,pisco,-13.7,-76.2167,17.23,88,23,3.09,PE,1696486179
528,prado,-17.3411,-39.2208,24.03,89,76,4.86,BR,1696485903
529,adam,22.3756,57.5233,35.17,21,1,0.78,OM,1696486180
530,al khafji,28.4391,48.4913,33.01,43,0,7.48,SA,1696486180
531,tamanrasset,22.785,5.5228,17.95,59,40,3.09,DZ,1696486180
532,cooma,-36.2333,149.1333,10.66,48,56,6.53,AU,1696486180
533,al khums,32.6486,14.2619,22.9,66,1,2.12,LY,1696486180
534,rangpur,25.75,89.25,24.24,98,100,7.79,BD,1696486181
535,roccella ionica,38.322,16.4009,22.09,62,11,1.59,IT,1696486181
536,gondar,12.6,37.4667,19.24,48,36,3.93,ET,1696486181
537,kapa'a,22.0752,-159.319,25.99,90,100,2.06,US,1696486181
538,whangarei,-35.7317,174.3239,14.54,80,55,2.76,NZ,1696486032
539,dunedin,-45.8742,170.5036,14.33,75,100,4.02,NZ,1696486090
540,keetmanshoop,-26.5833,18.1333,24.89,17,83,4.27,NA,1696486182
541,okoneshnikovo,54.8377,75.0834,15.78,46,80,5.21,RU,1696486182
542,baie-comeau,49.2168,-68.1489,11.82,87,75,4.12,CA,1696486183
543,baukau,51.5526,7.2042,13.31,73,100,4.07,DE,1696486183
544,otaki,-40.7583,175.15,15.53,76,100,0.45,NZ,1696486106
545,lensk,60.7253,114.9278,3.18,55,64,5.36,RU,1696486183
546,la passe,45.5549,-0.8967,9.43,73,67,3.21,FR,1696486183
547,port isabel,26.0734,-97.2086,30.02,82,20,4.12,US,1696486184
548,antonio enes,-16.2325,39.9086,27.22,68,6,2.88,MZ,1696486184
549,yuzhno-kurilsk,44.0306,145.8556,14.1,73,100,11.83,RU,1696486184
550,hillerod,55.9267,12.3109,13.18,84,72,4.47,DK,1696486184
551,ormara,25.2088,64.6357,28.6,76,7,4.65,PK,1696486185
552,belmonte,-15.8631,-38.8828,24.16,90,18,3.74,BR,1696486185
553,penzance,50.1186,-5.5371,15.38,85,95,6.38,GB,1696485989
554,bikenibeu village,1.3673,173.1241,28.89,70,96,0.21,KI,1696486185
555,la democracia,14.2308,-90.9472,23.36,96,77,2.08,GT,1696486185
556,kaka,37.3482,59.6143,22.11,46,99,1.18,TM,1696486186
557,montmagny,48.9734,2.3469,12.21,89,0,1.54,FR,1696486186
558,vallenar,-28.5708,-70.7581,13.66,57,27,0.41,CL,1696486186
559,west end,26.6833,-78.9667,23.99,76,1,6.14,BS,1696486186
560,point pedro,9.8167,80.2333,29.25,75,65,9.14,LK,1696486161
561,turkmenbasy,40.0222,52.9552,18.43,77,100,6.17,TM,1696486187
562,chasong,41.4608,126.6414,13.03,38,3,4.16,KP,1696486187
563,pitkyaranta,61.5734,31.4792,5.29,90,25,3.43,RU,1696486188
564,zlatoust,55.1711,59.6508,12.21,60,51,4.57,RU,1696485903
565,khandyga,62.6667,135.6,1.98,66,95,1.75,RU,1696486188
566,antigonish,45.6169,-61.9986,12.12,90,71,2.27,CA,1696486188
567,smithers,54.7804,-127.1743,6.18,100,100,0.0,CA,1696486189
568,vada,51.97,5.6667,13.28,93,100,3.6,NL,1696486189
569,sao jose de piranhas,-7.1206,-38.5019,22.07,70,0,1.87,BR,1696486189
570,luganville,-15.5333,167.1667,25.2,78,100,6.89,VU,1696486189
571,noumea,-22.2763,166.4572,24.99,63,7,6.69,NC,1696486190
572,dzhangala,49.2167,50.3333,18.55,47,94,3.0,KZ,1696486190
573,belle fourche,44.6714,-103.8522,13.51,61,73,6.18,US,1696486190
574,shimanovsk,52.0,127.7,8.92,37,10,4.77,RU,1696486191
575,tosontsengel,48.7567,98.2839,8.63,52,100,3.36,MN,1696486191
576,ust-tsilma,65.441,52.1498,10.34,93,78,4.47,RU,1696486191
577,tonekabon,36.8163,50.8738,19.29,95,85,8.03,IR,1696486191
578,marka,1.7159,44.7717,27.7,72,42,6.11,SO,1696486191
579,aguilares,-27.4338,-65.6143,13.24,52,19,0.72,AR,1696486192
580,sao martinho,39.5144,-9.1311,18.27,91,0,1.34,PT,1696486192
581,brisas de zicatela,15.8369,-97.0419,26.31,86,65,2.03,MX,1696486192
582,collie,-33.3667,116.15,23.76,38,77,3.04,AU,1696486192
583,corumba,-19.0092,-57.6533,21.54,75,83,1.85,BR,1696486023
584,mariinsk,56.2139,87.7472,12.22,49,100,5.81,RU,1696486193
585,papao,-17.75,-149.55,25.82,81,4,10.99,PF,1696486193
586,agios nikolaos,35.1914,25.7133,22.09,61,0,2.86,GR,1696486193
587,karratha,-20.7377,116.8463,33.06,21,0,6.64,AU,1696486194
